time,speed_mps,throttle,steer,brake,x,y,z,pitch,yaw,roll
0.0,0.05731832236051655,0.0,0.0,0.0,-64.64484405517578,24.471010208129883,-0.014911956153810024,0.0,0.15919795632362366,0.0
0.05,0.044310081750318045,0.0,0.0,0.0,-64.64484405517578,24.471010208129883,-0.012448081746697426,0.0,0.15919795632362366,0.0
0.1,0.03400721401003457,0.0,0.0,0.0,-64.64484405517578,24.471010208129883,-0.010551529005169868,0.0,0.15919795632362366,0.0
0.15,0.02593709900975399,0.8500000238418579,-0.15000000596046448,0.0,-64.64484405517578,24.471010208129883,-0.009101294912397861,0.0,0.15919795632362366,0.0
0.2,0.01967893540859557,0.8500000238418579,-0.15000000596046448,0.0,-64.64484405517578,24.471010208129883,-0.007998581044375896,0.0,0.15919795632362366,0.0
0.25,0.014861773700181066,0.8500000238418579,-0.15000000596046448,0.0,-64.64484405517578,24.471010208129883,-0.007164268288761377,0.0,0.15919795632362366,0.0
0.3,0.011177520267673411,0.8500000238418579,-0.15000000596046448,0.0,-64.64484405517578,24.471010208129883,-0.00653572054579854,0.0,0.15919795632362366,0.0
0.35,0.008377389982352606,0.8500000238418579,-0.10903239995241165,0.0,-64.64484405517578,24.471010208129883,-0.006063919048756361,0.0,0.15919795632362366,0.0
0.4,0.006258487701428642,0.8500000238418579,-0.10903239995241165,0.0,-64.64484405517578,24.471010208129883,-0.005711021367460489,0.0,0.15919795632362366,0.0
0.45,0.004660530015839772,0.8500000238418579,-0.10903239995241165,0.0,-64.64484405517578,24.471010208129883,-0.0054478454403579235,0.0,0.15919795632362366,0.0
0.5,0.0034625052940189063,0.8500000238418579,-0.10903239995241165,0.0,-64.64484405517578,24.471010208129883,-0.005252113100141287,0.0,0.15919795632362366,0.0
0.55,0.0009875678515156516,0.8500000238418579,-0.10903239995241165,0.0,-64.64484405517578,24.471010208129883,-0.005221023224294186,0.0,0.15919795632362366,0.0
0.6,0.0013448238605707247,0.8500000238418579,-0.10903239995241165,0.0,-64.64484405517578,24.471010208129883,-0.0051593780517578125,0.0,0.15919795632362366,0.0
0.65,0.10129316117341551,0.8500000238418579,-0.10903239995241165,0.0,-64.64375305175781,24.47092628479004,-0.0051116179674863815,0.006058377679437399,0.15573009848594666,0.0023175294045358896
0.7,0.513039800031809,0.8500000238418579,-0.10903239995241165,0.0,-64.62554931640625,24.46981430053711,-0.005337981972843409,0.08569838106632233,0.09086301177740097,0.024690978229045868
0.75,0.745410281630224,0.8500000238418579,-0.10903239995241165,0.0,-64.59272003173828,24.46784782409668,-0.005594711285084486,0.17185437679290771,0.004367128014564514,0.04314013943076134
0.8,1.0049340006674579,0.8500000238418579,-0.10903239995241165,0.0,-64.54600524902344,24.46493911743164,-0.005838165059685707,0.2521842420101166,-0.1105956882238388,0.06187044456601143
0.85,1.206841157864881,0.8500000238418579,-0.10903239995241165,0.0,-64.4892578125,24.46137809753418,-0.005991439800709486,0.30543237924575806,-0.2620543837547302,0.0734226256608963
0.9,1.4056495707315277,0.8500000238418579,-0.10903239995241165,0.0,-64.42231750488281,24.45708465576172,-0.006098937708884478,0.3439546525478363,-0.43289175629615784,0.08169995248317719
0.95,1.5812689259035255,0.8500000238418579,-0.10468830913305283,0.0,-64.34606170654297,24.452117919921875,-0.00616313936188817,0.36883020401000977,-0.6434325575828552,0.08848576992750168
1.0,1.686396362122176,0.8500000238418579,-0.10468830913305283,0.0,-64.26427459716797,24.446395874023438,-0.0061372374184429646,0.3675256371498108,-0.8334656357765198,0.09057492762804031
1.05,1.832819739295093,0.8500000238418579,-0.10468830913305283,0.0,-64.17606353759766,24.43999671936035,-0.006094818003475666,0.36058616638183594,-1.0547178983688354,0.09315826743841171
1.1,2.013858951011838,0.8500000238418579,-0.10468830913305283,0.0,-64.07946014404297,24.432575225830078,-0.00607936829328537,0.36010122299194336,-1.277679443359375,0.09776166826486588
1.15,2.2249045971498083,0.8500000238418579,-0.08784052729606628,0.0,-63.97277069091797,24.424707412719727,-0.00610366789624095,0.3695746958255768,-1.5119324922561646,0.09279853105545044
1.2,2.458805382393005,0.8500000238418579,-0.08784052729606628,0.0,-63.85477828979492,24.41575813293457,-0.006161918397992849,0.38769516348838806,-1.74102783203125,0.0936119556427002
1.25,2.7113861436512146,0.8500000238418579,-0.08784052729606628,0.0,-63.72455596923828,24.405473709106445,-0.006244849879294634,0.4119560122489929,-2.00506591796875,0.1011633425951004
1.3,2.981760270965601,0.8500000238418579,-0.08784052729606628,0.0,-63.58121871948242,24.39351463317871,-0.006345138419419527,0.44049936532974243,-2.27978515625,0.11231239885091782
1.35,3.263747835002901,0.8500000238418579,-0.21955707669258118,0.0,-63.42451095581055,24.376028060913086,-0.006449546664953232,0.47023800015449524,-2.734863758087158,0.20367005467414856
1.4,3.559712941290589,0.8500000238418579,-0.21955707669258118,0.0,-63.25433349609375,24.349843978881836,-0.006553458981215954,0.5001679062843323,-3.479034900665283,0.3469700217247009
1.45,3.8411473089803922,0.8500000238418579,-0.21955707669258118,0.0,-63.07063674926758,24.317962646484375,-0.006648445036262274,0.5266621708869934,-4.348085880279541,0.4408071041107178
1.5,4.109761785286385,0.8500000238418579,-0.21955707669258118,0.0,-62.874202728271484,24.28062629699707,-0.006719283759593964,0.5457935333251953,-5.286105155944824,0.5007197260856628
1.55,4.379960702398251,0.8500000238418579,-0.15888357162475586,0.0,-62.66447067260742,24.241193771362305,-0.006780433468520641,0.5607106685638428,-6.130161762237549,0.47223323583602905
1.6,4.6412840256336825,0.8500000238418579,-0.15888357162475586,0.0,-62.44197463989258,24.198131561279297,-0.006817474029958248,0.5701500177383423,-6.926763534545898,0.44997572898864746
1.65,4.900295844603075,0.8500000238418579,-0.15888357162475586,0.0,-62.2072868347168,24.149932861328125,-0.00683608977124095,0.5752658247947693,-7.7458882331848145,0.4532333016395569
1.7,5.159492497619041,0.8500000238418579,-0.15888357162475586,0.0,-61.96060562133789,24.09596824645996,-0.006751060485839844,0.5781481862068176,-8.600626945495605,0.474043071269989
1.75,5.397311365372229,0.8500000238418579,-0.060873061418533325,0.0,-61.70067596435547,24.042325973510742,-0.006623573135584593,0.5805523991584778,-9.220959663391113,0.3593004047870636
1.8,5.464371708759643,0.8500000238418579,-0.060873061418533325,0.0,-61.43576431274414,23.989215850830078,-0.006420173682272434,0.5411080718040466,-9.64600944519043,0.26082178950309753
1.85,5.435000590638906,0.8500000238418579,-0.060873061418533325,0.0,-61.16876220703125,23.934755325317383,-0.006187629420310259,0.48288750648498535,-9.949507713317871,0.20983479917049408
1.9,5.714332182144467,0.8500000238418579,-0.060873061418533325,0.0,-60.89187240600586,23.877153396606445,-0.006098823621869087,0.45836713910102844,-10.255753517150879,0.1928662806749344
1.95,5.57211993392542,0.8500000238418579,0.015894072130322456,0.0,-60.616458892822266,23.82315444946289,-0.005867805331945419,0.3911648988723755,-10.462601661682129,0.09553538262844086
2.0,5.7045044253083015,0.8500000238418579,0.015894072130322456,0.0,-60.33935546875,23.77159881591797,-0.005659980699419975,0.33029428124427795,-10.470993995666504,0.003754058387130499
2.05,6.2667186883329835,0.8500000238418579,0.015894072130322456,0.0,-60.042537689208984,23.71803092956543,-0.0058369445614516735,0.37466317415237427,-10.438858032226562,-0.0525817796587944
2.1,6.598061342648134,0.8500000238418579,0.015894072130322456,0.0,-59.72174835205078,23.660907745361328,-0.006160850170999765,0.4586949944496155,-10.350173950195312,-0.0800781175494194
2.15,6.872961954915563,0.8500000238418579,-0.0894145518541336,0.0,-59.3890495300293,23.595863342285156,-0.006355819758027792,0.5073464512825012,-10.490310668945312,0.04667863994836807
2.2,7.161411375704934,0.8500000238418579,-0.0894145518541336,0.0,-59.04441833496094,23.521514892578125,-0.0064801787957549095,0.5380959510803223,-10.939071655273438,0.20675697922706604
2.25,7.432601431108233,0.8500000238418579,-0.0894145518541336,0.0,-58.68724822998047,23.439952850341797,-0.006573371589183807,0.5607106685638428,-11.529191970825195,0.31742268800735474
2.3,7.733328015177257,0.8500000238418579,-0.0894145518541336,0.0,-58.31713104248047,23.350807189941406,-0.006650428753346205,0.5791317224502563,-12.19462776184082,0.4007958173751831
2.35,7.997715407350374,0.8500000238418579,-0.22202926874160767,0.0,-57.93594741821289,23.249074935913086,-0.0066970824263989925,0.5920407772064209,-13.100268363952637,0.582486629486084
2.4,8.281110141658862,0.8500000238418579,-0.22202926874160767,0.0,-57.5460090637207,23.128734588623047,-0.006716575473546982,0.6005853414535522,-14.474905014038086,0.8659303784370422
2.45,8.218637300596004,0.8500000238418579,-0.22202926874160767,0.0,-57.15729522705078,22.996538162231445,-0.00654117576777935,0.5515924096107483,-16.072317123413086,1.060356616973877
2.5,8.207801821911934,0.8500000238418579,-0.22202926874160767,0.0,-56.77389144897461,22.853830337524414,-0.006244964431971312,0.4689471125602722,-17.798776626586914,1.2059370279312134
2.55,8.585525356881186,0.4298412501811981,-0.276662677526474,0.0,-56.38763427734375,22.692556381225586,-0.0061254119500517845,0.4409160017967224,-19.740694046020508,1.428896188735962
2.6,8.914964473756266,0.4298412501811981,-0.276662677526474,0.0,-55.990379333496094,22.505632400512695,-0.006235847249627113,0.4761529564857483,-21.96717643737793,1.6907293796539307
2.65,9.114338572349853,0.4298412501811981,-0.276662677526474,0.0,-55.59033966064453,22.297319412231445,-0.006308173760771751,0.49561214447021484,-24.32383155822754,1.903712511062622
2.7,9.223309505517726,0.4298412501811981,-0.276662677526474,0.0,-55.19310760498047,22.069921493530273,-0.006269035395234823,0.4815419614315033,-26.76258659362793,2.0727899074554443
2.75,9.247307250399762,0.0,-0.21746116876602173,0.3913456201553345,-54.79988098144531,21.82976722717285,-0.0061569977551698685,0.4380268454551697,-29.06740951538086,2.097426652908325
2.8,9.177175087348017,0.0,-0.21746116876602173,0.3913456201553345,-54.41571044921875,21.579431533813477,-0.005895957816392183,0.35959577560424805,-31.22526741027832,2.094499111175537
2.85,9.027557535213354,0.0,-0.21746116876602173,0.3913456201553345,-54.04476547241211,21.3204288482666,-0.005533142015337944,0.2593422830104828,-33.28618240356445,2.099210739135742
2.9,8.880897568117833,0.0,-0.21746116876602173,0.3913456201553345,-53.688934326171875,21.053340911865234,-0.005137863103300333,0.15426664054393768,-35.30221939086914,2.121995687484741
2.95,8.698402520492277,0.0,-0.174819216132164,0.699999988079071,-53.34688949584961,20.781824111938477,-0.004785957280546427,0.056000716984272,-37.155784606933594,2.0730011463165283
3.0,8.531241301973955,0.0,-0.174819216132164,0.699999988079071,-53.01900863647461,20.506486892700195,-0.004458084236830473,-0.032559510320425034,-38.86267852783203,2.018348217010498
3.05,8.163961665163725,0.0,-0.174819216132164,0.699999988079071,-52.70795822143555,20.23004913330078,-0.004104118328541517,-0.12655657529830933,-40.465301513671875,1.9642428159713745
3.1,7.7381315006923,0.0,-0.174819216132164,0.699999988079071,-52.42264175415039,19.959890365600586,-0.0035920334048569202,-0.26122739911079407,-41.97037887573242,1.9247026443481445
3.15,7.3508879791483706,0.0,-0.024819210171699524,0.4997348189353943,-52.15359115600586,19.70111846923828,-0.003194427350535989,-0.37902766466140747,-43.06888198852539,1.6827958822250366
3.2,7.081174853444714,0.0,-0.024819210171699524,0.4997348189353943,-51.89471435546875,19.453319549560547,-0.0029158401302993298,-0.45740407705307007,-43.684085845947266,1.3829647302627563
3.25,6.759639634983983,0.0,-0.024819210171699524,0.4997348189353943,-51.64798355102539,19.214033126831055,-0.002696075476706028,-0.5108981132507324,-44.07034683227539,1.1599795818328857
3.3,6.527097854598599,0.0,-0.024819210171699524,0.4997348189353943,-51.41215133666992,18.982351303100586,-0.0025619505904614925,-0.5400357246398926,-44.34748077392578,0.9896578788757324
3.35,6.2400307027593005,0.8500000238418579,0.09623357653617859,0.0,-51.18336868286133,18.76253318786621,-0.0024865721352398396,-0.5584703683853149,-44.36396026611328,0.7298946380615234
3.4,6.087078749478704,0.8500000238418579,0.09623357653617859,0.0,-50.95746994018555,18.554157257080078,-0.0024979019071906805,-0.5523095726966858,-44.02897644042969,0.44932305812835693
3.45,5.932165989401045,0.8500000238418579,0.09623357653617859,0.0,-50.73501205444336,18.353330612182617,-0.0025736235547810793,-0.5274955034255981,-43.54343032836914,0.2543458044528961
3.5,5.887321410009506,0.8500000238418579,0.09623357653617859,0.0,-50.513431549072266,18.157785415649414,-0.002737617352977395,-0.4805242717266083,-42.98078155517578,0.1074090301990509
3.55,5.854685393571639,0.8500000238418579,-0.018174946308135986,0.0,-50.29512405395508,17.96134376525879,-0.0029549789614975452,-0.42010441422462463,-42.6224250793457,0.13142992556095123
3.6,5.916587190582319,0.8500000238418579,-0.018174946308135986,0.0,-50.078041076660156,17.76145362854004,-0.0032312774565070868,-0.3451157808303833,-42.539085388183594,0.1900060474872589
3.65,5.998074717768927,0.8500000238418579,-0.018174946308135986,0.0,-49.85885238647461,17.558326721191406,-0.0035402679350227118,-0.2624500095844269,-42.57524108886719,0.20884597301483154
3.7,6.158175638740766,0.8500000238418579,-0.018174946308135986,0.0,-49.635345458984375,17.350181579589844,-0.0038802337367087603,-0.17154018580913544,-42.6634635925293,0.20713688433170319
3.75,6.32033958660543,0.8500000238418579,-0.16817495226860046,0.0,-49.40961837768555,17.13266372680664,-0.004214706365019083,-0.08086943626403809,-42.95207595825195,0.30515751242637634
3.8,6.52646900456957,0.8500000238418579,-0.16817495226860046,0.0,-49.18518829345703,16.90068817138672,-0.004528693854808807,0.005996905732899904,-43.68998718261719,0.5184013247489929
3.85,6.741859933247476,0.8500000238418579,-0.16817495226860046,0.0,-48.95908737182617,16.65585708618164,-0.004833450075238943,0.08881977200508118,-44.6827392578125,0.6720215082168579
3.9,7.003123201753529,0.8500000238418579,-0.16817495226860046,0.0,-48.73029327392578,16.397258758544922,-0.005128936842083931,0.16789287328720093,-45.80891418457031,0.7827317118644714
3.95,7.2397853258206935,0.8500000238418579,-0.248348668217659,0.0,-48.50191116333008,16.12238883972168,-0.0053778840228915215,0.23682314157485962,-47.1584587097168,0.9497645497322083
4.0,7.509854898030833,0.8500000238418579,-0.248348668217659,0.0,-48.27609634399414,15.829400062561035,-0.005595016293227673,0.29724982380867004,-48.80626678466797,1.1443520784378052
4.05,7.767623398113167,0.8500000238418579,-0.248348668217659,0.0,-48.05179214477539,15.519014358520508,-0.0057964324951171875,0.35089412331581116,-50.61027526855469,1.2939969301223755
4.1,8.061791276370396,0.8500000238418579,-0.248348668217659,0.0,-47.82988357543945,15.190133094787598,-0.005976486019790173,0.3983844220638275,-52.52064895629883,1.4287668466567993
4.15,7.999034022845941,0.8500000238418579,-0.26603493094444275,0.0,-47.61738204956055,14.85186767578125,-0.0059304810129106045,0.3827637732028961,-54.493770599365234,1.5340694189071655
4.2,7.986216197561701,0.8500000238418579,-0.26603493094444275,0.0,-47.41725540161133,14.507976531982422,-0.0057350159622728825,0.327487051486969,-56.55255889892578,1.626944899559021
4.25,8.397814031307734,0.8500000238418579,-0.26603493094444275,0.0,-47.22515106201172,14.147846221923828,-0.005725326482206583,0.3266947567462921,-58.68832778930664,1.7498116493225098
4.3,8.816402157517565,0.8500000238418579,-0.26603493094444275,0.0,-47.037166595458984,13.75855541229248,-0.005978393368422985,0.3989991247653961,-60.95225143432617,1.9098947048187256
4.35,9.155601416084306,0.445376455783844,-0.1866992712020874,0.0,-46.85139465332031,13.347604751586914,-0.006273193284869194,0.47047707438468933,-63.0595817565918,1.9286116361618042
4.4,9.372456491822362,0.445376455783844,-0.1866992712020874,0.0,-46.67112731933594,12.920066833496094,-0.006422309670597315,0.5053520202636719,-64.97039031982422,1.9220058917999268
4.45,9.476000592037852,0.445376455783844,-0.1866992712020874,0.0,-46.50041580200195,12.480978965759277,-0.006395911797881126,0.49605610966682434,-66.79840087890625,1.927178144454956
4.5,9.548835312137257,0.445376455783844,-0.1866992712020874,0.0,-46.34071731567383,12.033878326416016,-0.006245422177016735,0.45491790771484375,-68.60417175292969,1.9374500513076782
4.55,9.535573299445135,0.0,-0.2091151922941208,0.699999988079071,-46.19470977783203,11.58089828491211,-0.006010169629007578,0.3940677344799042,-70.4573974609375,1.983150601387024
4.6,9.43463091500897,0.0,-0.2091151922941208,0.699999988079071,-46.06438446044922,11.12695026397705,-0.005685500800609589,0.308512806892395,-72.37225341796875,2.034855365753174
4.65,9.222997623245767,0.0,-0.2091151922941208,0.699999988079071,-45.95025634765625,10.677674293518066,-0.005282020661979914,0.19933906197547913,-74.28849029541016,2.0627639293670654
4.7,9.039484362277722,0.0,-0.2091151922941208,0.699999988079071,-45.85304641723633,10.23471736907959,-0.004861182998865843,0.08651117235422134,-76.20785522460938,2.0910072326660156
4.75,8.69190599854753,0.0,-0.1798177808523178,0.699999988079071,-45.77044677734375,9.800933837890625,-0.004450187552720308,-0.027621284127235413,-78.02527618408203,2.060732364654541
4.8,8.277913669496094,0.0,-0.1798177808523178,0.699999988079071,-45.704769134521484,9.386563301086426,-0.0039023971185088158,-0.17556317150592804,-79.7058334350586,2.029064655303955
4.85,7.860482919409611,0.0,-0.1798177808523178,0.699999988079071,-45.654212951660156,8.990743637084961,-0.0033931732177734375,-0.31310951709747314,-81.26343536376953,1.9793423414230347
4.9,7.544405110221519,0.0,-0.1798177808523178,0.699999988079071,-45.61690139770508,8.6109619140625,-0.0030017090030014515,-0.4186427593231201,-82.74967956542969,1.9186241626739502
4.95,7.211224971566361,0.0,-0.10998766869306564,0.4763158857822418,-45.58692932128906,8.246538162231445,-0.0027471540961414576,-0.4937748312950134,-83.99668884277344,1.7477821111679077
5.0,6.968872406158849,0.0,-0.10998766869306564,0.4763158857822418,-45.56330490112305,7.894987106323242,-0.002591743366792798,-0.536832332611084,-85.02513885498047,1.5737909078598022
5.05,6.6673205903032144,0.0,-0.10998766869306564,0.4763158857822418,-45.546287536621094,7.556736469268799,-0.0024772263132035732,-0.5650615096092224,-85.92413330078125,1.4261479377746582
5.1,6.44472747219355,0.0,-0.10998766869306564,0.4763158857822418,-45.53541564941406,7.230738162994385,-0.0024185562506318092,-0.5771782994270325,-86.76434326171875,1.3047534227371216
5.15,6.207961562254279,0.8500000238418579,-0.07117398828268051,0.0,-45.52760314941406,6.916751384735107,-0.0024056625552475452,-0.5797122716903687,-87.47451782226562,1.1450051069259644
5.2,6.2333629589457376,0.8500000238418579,-0.07117398828268051,0.0,-45.522705078125,6.605225563049316,-0.002580566331744194,-0.5308218002319336,-88.06987762451172,1.009690523147583
5.25,6.211746017394586,0.8500000238418579,-0.07117398828268051,0.0,-45.520912170410156,6.2937140464782715,-0.0028364944737404585,-0.459466814994812,-88.59939575195312,0.9018368721008301
5.3,5.718879582262714,0.8500000238418579,-0.07117398828268051,0.0,-45.52220916748047,5.999399185180664,-0.0027852249331772327,-0.4699374735355377,-89.10132598876953,0.8096771836280823
5.35,5.450149248575042,0.8500000238418579,0.01627212017774582,0.0,-45.521331787109375,5.7220330238342285,-0.002675399649888277,-0.5002157092094421,-89.33074951171875,0.619110643863678
5.4,5.315668890347512,0.8500000238418579,0.01627212017774582,0.0,-45.51799774169922,5.453846454620361,-0.002669219858944416,-0.501281201839447,-89.4096908569336,0.443696528673172
5.45,5.1844476982733285,0.8500000238418579,0.01627212017774582,0.0,-45.51397705078125,5.192014694213867,-0.002747230464592576,-0.47913092374801636,-89.44727325439453,0.32439732551574707
5.5,5.143476164783864,0.8500000238418579,0.01627212017774582,0.0,-45.50966262817383,4.93375825881958,-0.0029040907975286245,-0.4362783133983612,-89.44099426269531,0.2425076961517334
5.55,5.092498535282962,0.8500000238418579,0.055041924118995667,0.0,-45.50334548950195,4.677929401397705,-0.0030927658081054688,-0.3854958415031433,-89.31388092041016,0.14285312592983246
5.6,5.130320630789175,0.8500000238418579,0.055041924118995667,0.0,-45.49473190307617,4.421885013580322,-0.003325233468785882,-0.3230884075164795,-89.07335662841797,0.05323966592550278
5.65,5.183725437982744,0.8500000238418579,0.055041924118995667,0.0,-45.48457336425781,4.163545608520508,-0.003582649165764451,-0.2538439631462097,-88.7883529663086,-0.0075988867320120335
5.7,5.2175877745250485,0.8500000238418579,0.055041924118995667,0.0,-45.47273635864258,3.9024593830108643,-0.0038257979322224855,-0.1885405331850052,-88.480712890625,-0.0530700720846653
5.75,5.197628627198799,0.8500000238418579,-0.001038392074406147,0.0,-45.46269989013672,3.6419334411621094,-0.003984336741268635,-0.14605675637722015,-88.29000091552734,-0.0162963904440403
5.8,5.6167006294046935,0.8500000238418579,-0.001038392074406147,0.0,-45.45370864868164,3.3742763996124268,-0.004262847825884819,-0.07140962034463882,-88.21747589111328,0.022154800593852997
5.85,6.295408973448867,0.8500000238418579,-0.001038392074406147,0.0,-45.44396209716797,3.0707032680511475,-0.005014648195356131,0.13142649829387665,-88.19799041748047,0.039838165044784546
5.9,6.8399558189970415,0.8500000238418579,-0.001038392074406147,0.0,-45.43341064453125,2.7373459339141846,-0.005759620573371649,0.333490788936615,-88.19668579101562,0.043888915330171585
5.95,7.234825522955585,0.8500000238418579,-0.026834238320589066,0.0,-45.4245491027832,2.3814797401428223,-0.006307945121079683,0.4820200800895691,-88.28571319580078,0.08960973471403122
6.0,7.441566449200546,0.8500000238418579,-0.026834238320589066,0.0,-45.41709518432617,2.012993335723877,-0.006553878542035818,0.5471869111061096,-88.45281982421875,0.125491201877594
6.05,7.653176376834733,0.8500000238418579,-0.026834238320589066,0.0,-45.4107551574707,1.6345399618148804,-0.006627006456255913,0.565184473991394,-88.64874267578125,0.14710155129432678
6.1,7.910278464898237,0.8500000238418579,-0.026834238320589066,0.0,-45.405677795410156,1.2442537546157837,-0.006648673675954342,0.5696923732757568,-88.86113739013672,0.16396081447601318
6.15,8.157517298837023,0.8500000238418579,-0.020806102082133293,0.0,-45.40141677856445,0.8413770198822021,-0.006663551088422537,0.5728479623794556,-89.06417083740234,0.16685616970062256
6.2,8.309493490865332,0.8500000238418579,-0.020806102082133293,0.0,-45.39815139770508,0.42716333270072937,-0.006636657752096653,0.5647951364517212,-89.25667572021484,0.16890567541122437
6.25,8.292595586921014,0.8500000238418579,-0.020806102082133293,0.0,-45.396018981933594,0.012807502411305904,-0.006416053511202335,0.503999650478363,-89.44304656982422,0.16908696293830872
6.3,8.384747075531436,0.8500000238418579,-0.020806102082133293,0.0,-45.3951416015625,-0.40225109457969666,-0.006155280862003565,0.4331500828266144,-89.62874603271484,0.17177045345306396
6.35,8.896365705979177,0.20926886796951294,0.00439438596367836,0.0,-45.39326477050781,-0.8386260867118835,-0.006270408630371094,0.46549102663993835,-89.72503662109375,0.12910756468772888
6.4,9.194419957415338,0.20926886796951294,0.00439438596367836,0.0,-45.39071273803711,-1.2935289144515991,-0.006444892846047878,0.513500452041626,-89.7396011352539,0.08895678073167801
6.45,9.295489836383043,0.20926886796951294,0.00439438596367836,0.0,-45.38794708251953,-1.7567815780639648,-0.006458702031522989,0.5169223546981812,-89.72146606445312,0.06228410452604294
6.5,9.35410951577148,0.20926886796951294,0.00439438596367836,0.0,-45.38497543334961,-2.2231075763702393,-0.006321487482637167,0.4790079593658447,-89.68999481201172,0.04297870770096779
6.55,9.317426750489197,0.0,0.025338029488921165,0.699999988079071,-45.380043029785156,-2.6895434856414795,-0.006087379530072212,0.4151115417480469,-89.58636474609375,-0.008575433865189552
6.6,9.211704875303164,0.0,0.025338029488921165,0.699999988079071,-45.37318801879883,-3.151629686355591,-0.0057577514089643955,0.3258478045463562,-89.41111755371094,-0.058990478515625
6.65,8.995453032135794,0.0,0.025338029488921165,0.699999988079071,-45.364925384521484,-3.6048290729522705,-0.0053491974249482155,0.21571102738380432,-89.20469665527344,-0.09466549754142761
6.7,8.798557612506588,0.0,0.025338029488921165,0.699999988079071,-45.355224609375,-4.047517776489258,-0.004923553206026554,0.10150343924760818,-88.98238372802734,-0.1228332445025444
6.75,8.585868955190266,0.0,-0.00956589262932539,0.699999988079071,-45.3466682434082,-4.480005264282227,-0.004543571267277002,-0.00036883019492961466,-88.85394287109375,-0.0895385593175888
6.8,8.428062434110236,0.0,-0.00956589262932539,0.699999988079071,-45.339256286621094,-4.903720378875732,-0.004241828806698322,-0.08099237829446793,-88.83203887939453,-0.049224838614463806
6.85,7.9310310345516175,0.0,-0.00956589262932539,0.699999988079071,-45.33245086669922,-5.310433864593506,-0.003838577074930072,-0.18896400928497314,-88.86376190185547,-0.0240173302590847
6.9,7.550999591034257,0.0,-0.00956589262932539,0.699999988079071,-45.32636260986328,-5.693939208984375,-0.003364906180649996,-0.3157937824726105,-88.92182922363281,-0.007537841331213713
6.95,7.176536606392748,0.0,-0.03248947486281395,0.32890641689300537,-45.32242965698242,-6.058841228485107,-0.0029823684599250555,-0.41836273670196533,-89.04717254638672,0.03691898658871651
7.0,6.929394977219003,0.0,-0.03248947486281395,0.32890641689300537,-45.3205451965332,-6.409554481506348,-0.002753639128059149,-0.48019641637802124,-89.23886108398438,0.07951824367046356
7.05,6.633360598637192,0.0,-0.03248947486281395,0.32890641689300537,-45.32004165649414,-6.746687412261963,-0.0026137542445212603,-0.5183430314064026,-89.45153045654297,0.1047717034816742
7.1,6.423305854712269,0.0,-0.03248947486281395,0.32890641689300537,-45.32090759277344,-7.071832656860352,-0.00255584716796875,-0.5346056818962097,-89.67308807373047,0.12239191681146622
7.15,6.176385462990074,0.8500000238418579,-0.026199081912636757,0.0,-45.322601318359375,-7.385233402252197,-0.0025362777523696423,-0.5404660105705261,-89.87730407714844,0.12454964220523834
7.2,6.041861616638001,0.8500000238418579,-0.026199081912636757,0.0,-45.3251838684082,-7.689995765686035,-0.0025932311546057463,-0.5256922841072083,-90.06573486328125,0.1250697821378708
7.25,5.952666348951267,0.8500000238418579,-0.026199081912636757,0.0,-45.32862854003906,-7.988687992095947,-0.0027180861216038465,-0.49257954955101013,-90.24391174316406,0.12505079805850983
7.3,5.968899659466263,0.8500000238418579,-0.026199081912636757,0.0,-45.33311462402344,-8.287358283996582,-0.002959289588034153,-0.42797279357910156,-90.42064666748047,0.12832863628864288
7.35,5.78586266807958,0.8500000238418579,-0.0006848378106951714,0.0,-45.33690643310547,-8.58322811126709,-0.0031521606724709272,-0.37585845589637756,-90.5316162109375,0.09517254680395126
7.4,5.555884376269851,0.8500000238418579,-0.0006848378106951714,0.0,-45.34006118774414,-8.864897727966309,-0.003128318814560771,-0.38131576776504517,-90.57796478271484,0.06352272629737854
7.45,5.357696569071022,0.8500000238418579,-0.0006848378106951714,0.0,-45.34309005737305,-9.136391639709473,-0.0030920410063117743,-0.3905365467071533,-90.6005859375,0.04495517909526825
7.5,5.2730572430494265,0.8500000238418579,-0.0006848378106951714,0.0,-45.34605026245117,-9.40165901184082,-0.003124885493889451,-0.38162314891815186,-90.61265563964844,0.03367455676198006
7.55,5.1739536033506734,0.8500000238418579,0.015276014804840088,0.0,-45.348148345947266,-9.662320137023926,-0.0032049177680164576,-0.36016952991485596,-90.58782196044922,0.008169720880687237
7.6,5.16737921960474,0.8500000238418579,0.015276014804840088,0.0,-45.34941482543945,-9.92104721069336,-0.00334587087854743,-0.3224122226238251,-90.52521514892578,-0.015472397208213806
7.65,5.164014243879429,0.8500000238418579,0.015276014804840088,0.0,-45.35021209716797,-10.179540634155273,-0.0035215376410633326,-0.2750858664512634,-90.44742584228516,-0.029510503634810448
7.7,5.248844645043003,0.8500000238418579,0.015276014804840088,0.0,-45.35053253173828,-10.440677642822266,-0.003745765658095479,-0.21472065150737762,-90.36181640625,-0.039398182183504105
7.75,5.337071163681284,0.8500000238418579,0.013461464084684849,0.0,-45.350521087646484,-10.706494331359863,-0.003996581770479679,-0.14697200059890747,-90.27777099609375,-0.0432434044778347
7.8,5.337397239173927,0.8500000238418579,0.013461464084684849,0.0,-45.35017395019531,-10.973453521728516,-0.004165306221693754,-0.10116192698478699,-90.1954574584961,-0.0453186072409153
7.85,5.315620999102434,0.8500000238418579,0.013461464084684849,0.0,-45.34950256347656,-11.239909172058105,-0.0042620087042450905,-0.07486569881439209,-90.11528778076172,-0.0462646447122097
7.9,6.043529959232687,0.8500000238418579,0.013461464084684849,0.0,-45.3482551574707,-11.527238845825195,-0.004737548530101776,0.05354867875576019,-90.02874755859375,-0.0521545335650444
7.95,6.678543731275541,0.8500000238418579,0.008266418240964413,0.0,-45.34681701660156,-11.851052284240723,-0.0055078123696148396,0.2626070976257324,-89.95150756835938,-0.0500793382525444
8.0,7.189701450662884,0.8500000238418579,0.008266418240964413,0.0,-45.34505081176758,-12.202472686767578,-0.006177444476634264,0.44469308853149414,-89.88249969482422,-0.0485839769244194
8.05,7.593766071271667,0.8500000238418579,0.008266418240964413,0.0,-45.342830657958984,-12.575793266296387,-0.006649665534496307,0.5723903179168701,-89.81427001953125,-0.04952996224164963
8.1,7.841336757131246,0.8500000238418579,0.008266418240964413,0.0,-45.34012985229492,-12.964540481567383,-0.006880950648337603,0.6335204839706421,-89.74518585205078,-0.0514221116900444
8.15,8.037784818994707,0.8500000238418579,-0.0010571102611720562,0.0,-45.33772659301758,-13.362462997436523,-0.006901969667524099,0.6371814608573914,-89.70414733886719,-0.037445068359375
8.2,8.282279729787295,0.8500000238418579,-0.0010571102611720562,0.0,-45.33551025390625,-13.771463394165039,-0.006863212212920189,0.6253994107246399,-89.69073486328125,-0.023956313729286194
8.25,8.520430952238364,0.8500000238418579,-0.0010571102611720562,0.0,-45.333309173583984,-14.192543983459473,-0.006824111565947533,0.6142662167549133,-89.68993377685547,-0.015380843542516232
8.3,8.560176111128158,0.8500000238418579,-0.0010571102611720562,0.0,-45.33111572265625,-14.620265007019043,-0.006673621945083141,0.5727522969245911,-89.69473266601562,-0.009918224066495895
8.35,8.544995688881288,0.3609326481819153,-0.0077302781865000725,0.0,-45.32950973510742,-15.047106742858887,-0.006388740614056587,0.49512720108032227,-89.7220458984375,0.004866131115704775
8.4,8.878386790531254,0.3609326481819153,-0.0077302781865000725,0.0,-45.32848358154297,-15.480602264404297,-0.00622776011005044,0.4524180591106415,-89.77291870117188,0.02034076303243637
8.45,9.214312151239428,0.3609326481819153,-0.0077302781865000725,0.0,-45.32797622680664,-15.935640335083008,-0.006349715869873762,0.4869241714477539,-89.83811950683594,0.0336342416703701
8.5,9.411574513843563,0.3609326481819153,-0.0077302781865000725,0.0,-45.32801055908203,-16.40309715270996,-0.006418533157557249,0.5060008764266968,-89.90987396240234,0.043745335191488266
8.55,9.456179140747373,0.0,0.001372633851133287,0.5182433724403381,-45.327781677246094,-16.87532615661621,-0.006335067562758923,0.48292848467826843,-89.95403289794922,0.03430114686489105
8.6,9.400000230094188,0.0,0.001372633851133287,0.5182433724403381,-45.32733917236328,-17.346195220947266,-0.006090965121984482,0.4161838889122009,-89.9693374633789,0.02311655692756176
8.65,9.247267714384007,0.0,0.001372633851133287,0.5182433724403381,-45.326873779296875,-17.810874938964844,-0.005730361677706242,0.31843024492263794,-89.97061920166016,0.01596902869641781
8.7,9.099269463097258,0.0,0.001372633851133287,0.5182433724403381,-45.32638931274414,-18.267833709716797,-0.00533153535798192,0.21103234589099884,-89.96478271484375,0.011130589060485363
8.75,8.868106559522692,0.0,0.008106681518256664,0.699999988079071,-45.32535934448242,-18.715087890625,-0.004924278240650892,0.1017356589436531,-89.93587493896484,-0.003387458622455597
8.8,8.681649463632667,0.0,0.008106681518256664,0.699999988079071,-45.32378005981445,-19.15161895751953,-0.004540557973086834,-0.0010108679998666048,-89.88377380371094,-0.0180664025247097
8.85,8.468985610915231,0.0,0.008106681518256664,0.699999988079071,-45.32177734375,-19.578506469726562,-0.004224357660859823,-0.08554128557443619,-89.82135772705078,-0.028320303186774254
8.9,8.246278161060767,0.0,0.008106681518256664,0.699999988079071,-45.31935119628906,-19.995906829833984,-0.003965148702263832,-0.15493600070476532,-89.75365447998047,-0.036285400390625
8.95,7.703623272304603,0.0,0.008591379970312119,0.699999988079071,-45.3165283203125,-20.389911651611328,-0.003509330563247204,-0.2770666182041168,-89.68443298339844,-0.0433349534869194
9.0,7.352984246752562,0.0,0.008591379970312119,0.699999988079071,-45.31333541870117,-20.763212203979492,-0.003088798373937607,-0.3898603320121765,-89.61605072021484,-0.04852292686700821
9.05,6.97124274398679,0.0,0.008591379970312119,0.699999988079071,-45.30988311767578,-21.118425369262695,-0.0027627944946289062,-0.4776555895805359,-89.55023193359375,-0.050933826714754105
9.1,6.694437538172019,0.0,0.008591379970312119,0.699999988079071,-45.30616760253906,-21.458026885986328,-0.0025540159549564123,-0.5343256592750549,-89.48595428466797,-0.052398718893527985
9.15,6.374117483744161,0.0,0.0006452163215726614,0.3646600842475891,-45.302703857421875,-21.782508850097656,-0.0024168777745217085,-0.571891725063324,-89.44259643554688,-0.04223628714680672
9.2,6.1613477869287,0.0,0.0006452163215726614,0.3646600842475891,-45.299476623535156,-22.094642639160156,-0.002374954055994749,-0.5839811563491821,-89.4207534790039,-0.03161618858575821
9.25,5.891008494160451,0.0,0.0006452163215726614,0.3646600842475891,-45.29633712768555,-22.394506454467773,-0.0023686217609792948,-0.5861736536026001,-89.40862274169922,-0.02484133653342724
9.3,5.704575779518659,0.0,0.0006452163215726614,0.3646600842475891,-45.293270111083984,-22.683500289916992,-0.00240745535120368,-0.5761469006538391,-89.4010009765625,-0.02032468095421791
9.35,5.6059688871567435,0.8500000238418579,-0.0057163238525390625,0.0,-45.29058074951172,-22.96516990661621,-0.002525405725464225,-0.5448373556137085,-89.40819549560547,-0.009613045491278172
9.4,5.625233396873193,0.8500000238418579,-0.0057163238525390625,0.0,-45.28822708129883,-23.24671745300293,-0.0027834700886160135,-0.47586607933044434,-89.43228149414062,0.0010560209630057216
9.45,5.166173428054299,0.8500000238418579,-0.0057163238525390625,0.0,-45.286170959472656,-23.516048431396484,-0.0028159713838249445,-0.4660579264163971,-89.46288299560547,0.0073699369095265865
9.5,4.960183163287917,0.8500000238418579,-0.0057163238525390625,0.0,-45.28443908691406,-23.767948150634766,-0.0027792740147560835,-0.4873066544532776,-89.49138641357422,0.010874854400753975
9.55,4.807820119289327,0.8500000238418579,-0.005555423907935619,0.0,-45.2829475402832,-24.010507583618164,-0.00293979630805552,-0.4864187240600586,-89.52094268798828,0.013344748876988888
9.6,4.830507050502922,0.8500000238418579,-0.005555423907935619,0.0,-45.28162384033203,-24.25144386291504,-0.0031729505863040686,-0.4443994164466858,-89.55077362060547,0.01517090667039156
9.65,4.954373433181325,0.8500000238418579,-0.005555423907935619,0.0,-45.28040313720703,-24.497161865234375,-0.003505439730361104,-0.36279231309890747,-89.58111572265625,0.01652027666568756
9.7,5.134948739596624,0.8500000238418579,-0.005555423907935619,0.0,-45.27928161621094,-24.751195907592773,-0.0037900160532444715,-0.25103676319122314,-89.61239624023438,0.017774255946278572
9.75,5.2761897260858825,0.8500000238418579,-0.0004974849289283156,0.0,-45.27782440185547,-25.01447868347168,-0.004073333460837603,-0.13760781288146973,-89.6279296875,0.00990968570113182
9.8,5.2428728739535835,0.8500000238418579,-0.0004974849289283156,0.0,-45.27628707885742,-25.277587890625,-0.0042105866596102715,-0.08156611770391464,-89.635009765625,0.004865460563451052
9.85,5.2223157786349885,0.8500000238418579,-0.0004974849289283156,0.0,-45.27473831176758,-25.539188385009766,-0.0042709349654614925,-0.05694328248500824,-89.63960266113281,0.0023649604991078377
9.9,5.246608950844742,0.8500000238418579,-0.0004974849289283156,0.0,-45.2731819152832,-25.801374435424805,-0.004330329596996307,-0.03841981291770935,-89.64312744140625,0.001221221755258739
9.95,5.225997451958127,0.8500000238418579,0.0015734665794298053,0.0,-45.27151870727539,-26.063201904296875,-0.0043679047375917435,-0.02874826453626156,-89.64171600341797,-0.001770018832758069
10.0,5.426184967748872,0.8500000238418579,0.0015734665794298053,0.0,-45.26972961425781,-26.327239990234375,-0.004452476277947426,-0.007841057144105434,-89.63558959960938,-0.004302978049963713
10.05,5.921370787543363,0.8500000238418579,0.0015734665794298053,0.0,-45.2677001953125,-26.617408752441406,-0.004949226044118404,0.12416600435972214,-89.62648010253906,-0.0062255715020000935
10.1,6.246953447298994,0.8500000238418579,0.0015734665794298053,0.0,-45.26548385620117,-26.92446517944336,-0.005385932978242636,0.24019725620746613,-89.61620330810547,-0.007293691858649254
10.15,6.5500993407288925,0.8500000238418579,0.0016980490181595087,0.0,-45.26308822631836,-27.24698257446289,-0.005737075582146645,0.33308783173561096,-89.60494995117188,-0.00814817938953638
10.2,6.865526981691108,0.8500000238418579,0.0016980490181595087,0.0,-45.26051330566406,-27.58467674255371,-0.006014098878949881,0.4060342311859131,-89.59288787841797,-0.008880628272891045
10.25,7.154951590071751,0.8500000238418579,0.0016980490181595087,0.0,-45.25775146484375,-27.937196731567383,-0.006231269799172878,0.4628477394580841,-89.58003997802734,-0.009490964002907276
10.3,7.466486331025399,0.8500000238418579,0.0016980490181595087,0.0,-45.25479507446289,-28.30470848083496,-0.006402931176126003,0.5075376629829407,-89.56612396240234,-0.010162333026528358
10.35,7.699213616048001,0.0,0.000510465120896697,0.24126294255256653,-45.25173568725586,-28.685861587524414,-0.00651561701670289,0.5363815426826477,-89.55624389648438,-0.00869753211736679
10.4,7.8300138020151335,0.0,0.000510465120896697,0.24126294255256653,-45.24860763549805,-29.075136184692383,-0.006492996122688055,0.5284995436668396,-89.54946899414062,-0.007263201288878918
10.45,7.8258148527949585,0.0,0.000510465120896697,0.24126294255256653,-45.24544143676758,-29.46640968322754,-0.006319236475974321,0.4798344373703003,-89.5438461303711,-0.006378152407705784
10.5,7.781099099395462,0.0,0.000510465120896697,0.24126294255256653,-45.24226379394531,-29.85577964782715,-0.006032714620232582,0.40136921405792236,-89.53897094726562,-0.005828842055052519
10.55,7.637406877537359,0.0,-0.000304378685541451,0.699999988079071,-45.239158630371094,-30.23993492126465,-0.00567642180249095,0.3046742379665375,-89.53661346435547,-0.004241940565407276
10.6,7.477850439566028,0.0,-0.000304378685541451,0.699999988079071,-45.236141204833984,-30.61610984802246,-0.005277976859360933,0.1973378211259842,-89.53680419921875,-0.0027465862222015858
10.65,7.229706360562068,0.0,-0.000304378685541451,0.699999988079071,-45.23322677612305,-30.98160171508789,-0.004860610701143742,0.08524758368730545,-89.53816986083984,-0.0017395056784152985
10.7,7.038797609239448,0.0,-0.000304378685541451,0.699999988079071,-45.23040771484375,-31.336122512817383,-0.0044740294106304646,-0.01827758550643921,-89.54013061523438,-0.0010070803109556437
10.75,6.81990554513974,0.0,-0.00137643504422158,0.699999988079071,-45.22773742675781,-31.680683135986328,-0.0041588591411709785,-0.1026918888092041,-89.54476928710938,0.0009297042270191014
10.8,6.671654109711651,0.0,-0.00137643504422158,0.699999988079071,-45.2252197265625,-32.01661682128906,-0.003926429431885481,-0.165003702044487,-89.5523452758789,0.0028396095149219036
10.85,6.021048551259791,0.0,-0.00137643504422158,0.699999988079071,-45.22294998168945,-32.327510833740234,-0.0034436415880918503,-0.2943333387374878,-89.56043243408203,0.0040660700760781765
10.9,5.58520247338148,0.0,-0.00137643504422158,0.699999988079071,-45.22090148925781,-32.613643646240234,-0.0029552460182458162,-0.42528852820396423,-89.5731201171875,0.004583023022860289
10.95,4.381892695892969,0.0,-0.0008381697698496282,0.699999988079071,-45.22002029418945,-32.85734176635742,-0.002250099088996649,-0.6362320780754089,-89.42929077148438,0.011135788634419441
11.0,3.049783308582169,0.0,-0.0008381697698496282,0.699999988079071,-45.21973419189453,-33.03335952758789,-0.0011925888247787952,-0.9533646106719971,-89.3355712890625,0.013198979198932648
11.05,1.7364384545103366,0.0,-0.0008381697698496282,0.699999988079071,-45.21982955932617,-33.14316940307617,1.7509459212305956e-05,-1.291295051574707,-89.27652740478516,0.00799495168030262
11.1,0.4501253942962077,0.0,-0.0008381697698496282,0.699999988079071,-45.22014236450195,-33.188232421875,0.0011697768932208419,-1.6040971279144287,-89.24437713623047,-0.002594033721834421
11.15,0.0027555815777809915,0.8500000238418579,-0.0045730192214250565,0.0,-45.220252990722656,-33.18915557861328,0.001733703538775444,-1.7624824047088623,-89.24083709716797,-0.016174335032701492
11.2,0.32528398211509457,0.8500000238418579,-0.0045730192214250565,0.0,-45.22017288208008,-33.197994232177734,0.001156616141088307,-1.6231943368911743,-89.2415542602539,-0.01956171914935112
11.25,0.5945072125629766,0.8500000238418579,-0.0045730192214250565,0.0,-45.219886779785156,-33.22513198852539,6.347656017169356e-05,-1.3378291130065918,-89.2660903930664,-0.018585260957479477
11.3,0.7971115681974693,0.8500000238418579,-0.0045730192214250565,0.0,-45.219627380371094,-33.26274108886719,-0.001008911058306694,-1.0462688207626343,-89.25408935546875,-0.0137939453125
11.35,0.935408479374145,0.8500000238418579,-0.008443115279078484,0.0,-45.21913528442383,-33.30929946899414,-0.0019424057099968195,-0.7855809926986694,-89.2813949584961,-0.011535672470927238
11.4,1.1221307873573594,0.8500000238418579,-0.008443115279078484,0.0,-45.218666076660156,-33.36389923095703,-0.002724609337747097,-0.5639004111289978,-89.31100463867188,-0.009368912316858768
11.45,1.3609071790403897,0.8500000238418579,-0.008443115279078484,0.0,-45.21819305419922,-33.429039001464844,-0.003412170335650444,-0.368679940700531,-89.3314208984375,-0.006439213640987873
11.5,1.4784451935078018,0.8500000238418579,-0.008443115279078484,0.0,-45.21776580810547,-33.50258255004883,-0.003951988182961941,-0.2149733603000641,-89.31695556640625,-0.0036926299799233675
11.55,1.7122559648455506,0.8500000238418579,-0.005828078370541334,0.0,-45.21706771850586,-33.585269927978516,-0.004400176927447319,-0.08807528764009476,-89.3218002319336,-0.0031738269608467817
11.6,1.8344519890958264,0.8500000238418579,-0.005828078370541334,0.0,-45.21631622314453,-33.675331115722656,-0.0047335815615952015,0.005901283118873835,-89.33425903320312,-0.0019226078875362873
11.65,1.986030967030281,0.8500000238418579,-0.005828078370541334,0.0,-45.21551513671875,-33.772098541259766,-0.004982337821274996,0.07550090551376343,-89.34764862060547,-0.0006713868351653218
11.7,2.167806122356834,0.8500000238418579,-0.005828078370541334,0.0,-45.21467208862305,-33.877296447753906,-0.005198630969971418,0.135265052318573,-89.36203002929688,0.0005666871438734233
11.75,2.385306749254925,0.8500000238418579,-0.005022087134420872,0.0,-45.21372985839844,-33.992645263671875,-0.005407600197941065,0.19231079518795013,-89.37629699707031,0.0012765987776219845
11.8,2.6218511942656972,0.8500000238418579,-0.005022087134420872,0.0,-45.212703704833984,-34.11945343017578,-0.005614280700683594,0.24838665127754211,-89.39116668701172,0.0021412710193544626
11.85,2.8859557788899846,0.8500000238418579,-0.005022087134420872,0.0,-45.21162033081055,-34.25891876220703,-0.005819244310259819,0.30382728576660156,-89.40737915039062,0.003318704664707184
11.9,3.160788740594406,0.8500000238418579,-0.005022087134420872,0.0,-45.210472106933594,-34.41189956665039,-0.006018790882080793,0.35758087038993835,-89.42498016357422,0.004571740049868822
11.95,3.4684572894998107,0.8500000238418579,-0.003669301513582468,0.0,-45.209163665771484,-34.579586029052734,-0.00621654512360692,0.4108017086982727,-89.44078826904297,0.004360693972557783
12.0,3.76160938932056,0.8500000238418579,-0.003669301513582468,0.0,-45.207763671875,-34.762351989746094,-0.006398887373507023,0.4598219692707062,-89.45626831054688,0.00454011419788003
12.05,4.03552601795731,0.8500000238418579,-0.003669301513582468,0.0,-45.206298828125,-34.959068298339844,-0.0065402984619140625,0.4976065754890442,-89.47258758544922,0.005221236031502485
12.1,4.299925064901402,0.8500000238418579,-0.003669301513582468,0.0,-45.20478439331055,-35.16904830932617,-0.006640624720603228,0.5242443084716797,-89.4898681640625,0.006138088647276163
12.15,4.560728541336911,0.8500000238418579,-0.0021863109432160854,0.0,-45.203125,-35.39204406738281,-0.006710166577249765,0.5425833463668823,-89.50376892089844,0.005071188788861036
12.2,4.820449542318318,0.8500000238418579,-0.0021863109432160854,0.0,-45.20137023925781,-35.627986907958984,-0.0067586516961455345,0.555260181427002,-89.51585388183594,0.00445149140432477
12.25,5.080787695511246,0.8500000238418579,-0.0021863109432160854,0.0,-45.19956588745117,-35.876895904541016,-0.006743850652128458,0.5646243691444397,-89.52800750732422,0.004575568251311779
12.3,5.342462097902042,0.8500000238418579,-0.0021863109432160854,0.0,-45.19770812988281,-36.13882064819336,-0.00660503376275301,0.5720692873001099,-89.54065704345703,0.00512591190636158
12.35,5.401184287196555,0.8500000238418579,-0.0008491200860589743,0.0,-45.195735931396484,-36.40935134887695,-0.006462478544563055,0.5526373982429504,-89.5494613647461,0.003508692141622305
12.4,5.400775952311047,0.8500000238418579,-0.0008491200860589743,0.0,-45.19375228881836,-36.67848587036133,-0.006179390009492636,0.48128241300582886,-89.55611419677734,0.0024180521722882986
12.45,5.38988735915564,0.8500000238418579,-0.0008491200860589743,0.0,-45.19178771972656,-36.94765853881836,-0.00590030662715435,0.4048252999782562,-89.56182861328125,0.0019540563225746155
12.5,5.4094875551260575,0.8500000238418579,-0.0008491200860589743,0.0,-45.189842224121094,-37.21706771850586,-0.0056504057720303535,0.3335864245891571,-89.56719970703125,0.001911071129143238
12.55,5.373913165688818,0.0,0.0005557169206440449,0.6369376182556152,-45.18783950805664,-37.48583984375,-0.005426368676126003,0.2684059143066406,-89.5692367553711,0.0002758519258350134
12.6,5.680494069329798,0.0,0.0005557169206440449,0.6369376182556152,-45.185691833496094,-37.767459869384766,-0.0054730987176299095,0.27677974104881287,-89.56777954101562,-0.0012817425886169076
12.65,5.686074798240417,0.0,0.0005557169206440449,0.6369376182556152,-45.18348693847656,-38.052127838134766,-0.005441398359835148,0.26368626952171326,-89.56513214111328,-0.0020446893759071827
12.7,5.652628787390356,0.0,0.0005557169206440449,0.6369376182556152,-45.181278228759766,-38.33515930175781,-0.005306358449161053,0.222985178232193,-89.5619125366211,-0.0023803720250725746
12.75,5.531598275128636,0.0,0.000870533986017108,0.699999988079071,-45.17906951904297,-38.61378860473633,-0.005099182017147541,0.16350789368152618,-89.55805206298828,-0.002838148269802332
12.8,5.440529632954592,0.0,0.000870533986017108,0.699999988079071,-45.17687225341797,-38.88703155517578,-0.004867019597440958,0.09806784987449646,-89.55343627929688,-0.0032348695676773787
12.85,4.577435536049637,0.0,0.000870533986017108,0.699999988079071,-45.17483139038086,-39.1385383605957,-0.0043708039447665215,-0.050174567848443985,-89.54888153076172,-0.0031738276593387127
12.9,3.2326670912373183,0.0,0.000870533986017108,0.699999988079071,-45.1733283996582,-39.323699951171875,-0.0032697676215320826,-0.38858309388160706,-89.54547882080078,-0.0025329645723104477
12.95,1.9124890144522106,0.0,-0.0029316903091967106,1.0,-45.17243576049805,-39.44183349609375,-0.0018513487884774804,-0.7867421507835388,-89.5456771850586,-0.000488351215608418
13.0,0.6182748669338127,0.0,-0.0029316903091967106,1.0,-45.17206573486328,-39.49481964111328,-0.00043712614569813013,-1.1702231168746948,-89.54681396484375,0.0002777477784547955
13.05,0.007675412602106527,0.0,-0.0029316903091967106,1.0,-45.17203903198242,-39.4985237121582,0.0005089569021947682,-1.426812767982483,-89.54708099365234,-0.0001526593550806865
13.1,0.004987194698103846,0.0,-0.0029316903091967106,1.0,-45.172035217285156,-39.49862289428711,0.0004182052507530898,-1.4121688604354858,-89.547119140625,-0.0003052634419873357
13.15,0.009591448801293598,0.0,-0.0024325435515493155,1.0,-45.17202377319336,-39.49951171875,-0.00011215209815418348,-1.275968074798584,-89.54718017578125,-0.000427259539719671
13.2,0.010770815818320095,0.0,-0.0024325435515493155,1.0,-45.17201232910156,-39.50063705444336,-0.0007571792230010033,-1.1028090715408325,-89.54732513427734,-0.0004578141961246729
13.25,0.010434966360684788,0.0,-0.0024325435515493155,1.0,-45.1719970703125,-39.501766204833984,-0.0013868713285773993,-0.9290149807929993,-89.54742431640625,-0.00045778954518027604
13.3,0.009449031553067215,0.0,-0.0024325435515493155,1.0,-45.1719856262207,-39.5027961730957,-0.0019543839152902365,-0.7697144746780396,-89.5475082397461,-0.0004272455407772213
13.35,0.008229796647700677,0.0,-0.0023441039957106113,1.0,-45.17197799682617,-39.50370407104492,-0.002446136437356472,-0.6303102970123291,-89.54753112792969,-0.0003662376548163593
13.4,0.006986917026576852,0.0,-0.0023441039957106113,1.0,-45.171966552734375,-39.50447082519531,-0.0028627775609493256,-0.511745035648346,-89.54759979248047,-0.000335706485202536
13.45,0.00582384879715017,0.0,-0.0023441039957106113,1.0,-45.17196273803711,-39.50510025024414,-0.0032104109413921833,-0.41283708810806274,-89.54759979248047,-0.0002746554382611066
13.5,0.004792171585464123,0.0,-0.0023441039957106113,1.0,-45.17195129394531,-39.50562286376953,-0.003497543279081583,-0.33142125606536865,-89.54757690429688,-0.00018311082385480404
13.55,0.003904536231936049,0.0,-0.0022686540614813566,1.0,-45.17194747924805,-39.50604248046875,-0.003732604905962944,-0.2651069462299347,-89.54753112792969,-0.00015258698840625584
13.6,0.003158042338325679,0.0,-0.0022686540614813566,1.0,-45.17194747924805,-39.50638961791992,-0.0039239502511918545,-0.2114899605512619,-89.54757690429688,-0.00012207044346723706
13.65,0.0025403935047921882,0.0,-0.0022686540614813566,1.0,-45.17194366455078,-39.50666427612305,-0.004078979603946209,-0.16835732758045197,-89.54753112792969,-9.15609416551888e-05
13.7,0.002034884060028592,0.0,-0.0022686540614813566,1.0,-45.17194366455078,-39.50688171386719,-0.004203986842185259,-0.13384437561035156,-89.54756927490234,-6.103831401560456e-05
13.75,0.0016253245960557376,0.0,-0.002401759149506688,1.0,-45.17193603515625,-39.507057189941406,-0.004304466303437948,-0.10629139840602875,-89.54757690429688,-6.103824853198603e-05
13.8,0.0012950887968701391,0.0,-0.002401759149506688,1.0,-45.17193603515625,-39.50719451904297,-0.004385184962302446,-0.08432550728321075,-89.54752349853516,-6.103487248765305e-05
13.85,0.0010302575624716436,0.0,-0.002401759149506688,1.0,-45.17193603515625,-39.50730514526367,-0.004449615254998207,-0.06686072051525116,-89.54756927490234,-3.051909152418375e-05
13.9,0.0008188197982537391,0.0,-0.002401759149506688,1.0,-45.171932220458984,-39.50739288330078,-0.004501228220760822,-0.053009096533060074,-89.54753875732422,-3.0519084248226136e-05
13.95,0.0006500350654249653,0.0,-0.0022521945647895336,1.0,-45.171932220458984,-39.50746154785156,-0.004542198032140732,-0.04199200123548508,-89.54753112792969,-3.051908061024733e-05
14.0,0.0005156860096566836,0.0,-0.0022521945647895336,1.0,-45.171932220458984,-39.50751876831055,-0.004574927967041731,-0.03326302021741867,-89.54753112792969,-3.051907697226852e-05
14.05,0.0004089513527745364,0.0,-0.0022521945647895336,1.0,-45.171932220458984,-39.50756072998047,-0.004600944463163614,-0.026364529505372047,-89.54753875732422,-3.051824023714289e-05
14.1,0.00013941665478319789,0.0,-0.0022521945647895336,1.0,-45.171932220458984,-39.50757598876953,-0.00460956571623683,-0.024103736504912376,-89.54757690429688,-3.051824023714289e-05
14.15,0.00020394234597271866,0.0,-0.0023441039957106113,1.0,-45.171932220458984,-39.507591247558594,-0.004620208404958248,-0.021269207820296288,-89.54757690429688,-3.051824023714289e-05
14.2,0.00021195879246862568,0.0,-0.0023441039957106113,1.0,-45.171932220458984,-39.50761032104492,-0.004632492084056139,-0.01803852804005146,-89.54753875732422,0.0
14.25,0.00019501247383573518,0.0,-0.0023441039957106113,1.0,-45.171932220458984,-39.50762939453125,-0.0046442411839962006,-0.014896641485393047,-89.54753875732422,-8.337633916610798e-10
14.3,0.00016910064106971938,0.0,-0.0023441039957106113,1.0,-45.171932220458984,-39.50764083862305,-0.00465469341725111,-0.012150906026363373,-89.54753875732422,0.0
14.35,0.0001418403068441957,0.0,-0.0023273478727787733,1.0,-45.171932220458984,-39.507652282714844,-0.004663543775677681,-0.009794490411877632,-89.54753875732422,0.0
14.4,0.00011651643108279195,0.0,-0.0023273478727787733,1.0,-45.171932220458984,-39.50766372680664,-0.004670905880630016,-0.00787520781159401,-89.54753875732422,0.0
14.45,9.459439048511642e-05,0.0,-0.0023273478727787733,1.0,-45.171932220458984,-39.5076789855957,-0.004677009303122759,-0.006290603894740343,-89.54753875732422,-2.0844082015969434e-10
14.5,1.8411735537591877e-05,0.0,-0.0023273478727787733,1.0,-45.171932220458984,-39.507686614990234,-0.004680289886891842,-0.005436830222606659,-89.54753875732422,2.0844082015969434e-10
14.55,4.0771567623649065e-05,0.0,-0.0023273478727787733,1.0,-45.171932220458984,-39.5076904296875,-0.004682197235524654,-0.004910905845463276,-89.54753875732422,0.0
14.6,4.646554544205461e-05,0.0,-0.0023273478727787733,1.0,-45.171932220458984,-39.50769805908203,-0.004684829618781805,-0.004214226268231869,-89.54753875732422,0.0
14.65,4.438043034484011e-05,0.0,-0.0023273478727787733,1.0,-45.171932220458984,-39.50770568847656,-0.004687499720603228,-0.0035107170697301626,-89.54753875732422,0.0
14.7,3.9223888355565827e-05,0.0,-0.0023273478727787733,1.0,-45.171932220458984,-39.507713317871094,-0.004689864814281464,-0.002868679352104664,-89.54753875732422,1.0422041007984717e-10
14.75,3.326585733068868e-05,0.0,-0.0023273478727787733,1.0,-45.171932220458984,-39.50771713256836,-0.004691963084042072,-0.0023222642485052347,-89.54753875732422,0.0
14.8,2.758918313050714e-05,0.0,-0.0023273478727787733,1.0,-45.171932220458984,-39.507720947265625,-0.004693679511547089,-0.001857811352238059,-89.54753875732422,-1.0422041007984717e-10
14.85,2.2448934274628628e-05,0.0,-0.0023273478727787733,1.0,-45.171932220458984,-39.50772476196289,-0.004695090930908918,-0.001495811389759183,-89.54753875732422,0.0
14.9,1.8162720646613876e-05,0.0,-0.0023273478727787733,1.0,-45.171932220458984,-39.50772476196289,-0.004696235526353121,-0.001188452821224928,-89.54753875732422,0.0
14.95,7.534630037437965e-06,0.0,-0.0023273478727787733,1.0,-45.171932220458984,-39.507728576660156,-0.004696540534496307,-0.001188452821224928,-89.54753875732422,0.0
15.0,9.911549549215886e-06,0.0,-0.0023273478727787733,1.0,-45.171932220458984,-39.507728576660156,-0.004696540534496307,-0.001188452821224928,-89.54753875732422,0.0
15.05,1.0038166263395375e-05,0.0,-0.0023273478727787733,1.0,-45.171932220458984,-39.50773239135742,-0.004697608761489391,-0.0008264528587460518,-89.54753875732422,0.0
15.1,9.126693649448883e-06,0.0,-0.0023273478727787733,1.0,-45.171932220458984,-39.50773239135742,-0.004698142874985933,-0.0006761886761523783,-89.54753875732422,0.0
15.15,7.851737036744656e-06,0.0,-0.0023273478727787733,1.0,-45.171932220458984,-39.50773239135742,-0.004698142874985933,-0.0006761886761523783,-89.54753875732422,0.0
15.2,6.7072505921968204e-06,0.0,-0.0023273478727787733,1.0,-45.171932220458984,-39.50773239135742,-0.004698142874985933,-0.0006761886761523783,-89.54753875732422,0.0
15.25,5.670168206781204e-06,0.0,-0.0023273478727787733,1.0,-45.171932220458984,-39.50773620605469,-0.004699401557445526,-0.00036883019492961466,-89.54753875732422,-1.3027551259980896e-11
15.3,4.381129991612254e-06,0.0,-0.0023273478727787733,1.0,-45.171932220458984,-39.50773620605469,-0.004699401557445526,-0.00036883019492961466,-89.54753875732422,-1.3027551259980896e-11
15.35,1.426419370126741e-06,0.0,-0.00238500302657485,1.0,-45.171932220458984,-39.50773620605469,-0.004699401557445526,-0.00036883019492961466,-89.54753875732422,-1.3027551259980896e-11
15.4,2.110969212118992e-06,0.0,-0.00238500302657485,1.0,-45.171932220458984,-39.50773620605469,-0.004699401557445526,-0.00036883019492961466,-89.54753875732422,-1.3027551259980896e-11
15.45,2.20800223502539e-06,0.0,-0.00238500302657485,1.0,-45.171932220458984,-39.50773620605469,-0.004699401557445526,-0.00036883019492961466,-89.54753875732422,-1.3027551259980896e-11
15.5,2.1085896962071283e-06,0.0,-0.00238500302657485,1.0,-45.171932220458984,-39.50774002075195,-0.004700202960520983,-0.00015709434228483588,-89.54753875732422,4.484408862026612e-07
15.55,1.8178904581157287e-06,0.0,-0.0023685432970523834,1.0,-45.171932220458984,-39.50774002075195,-0.004700202960520983,-0.00015709434228483588,-89.54753875732422,4.484408862026612e-07
15.6,1.6052672833560007e-06,0.0,-0.0023685432970523834,1.0,-45.171932220458984,-39.50774002075195,-0.004700202960520983,-0.00015709434228483588,-89.54753875732422,4.484408862026612e-07
15.65,1.3835584618963414e-06,0.0,-0.0023685432970523834,1.0,-45.171932220458984,-39.50774002075195,-0.004700202960520983,-0.00015709434228483588,-89.54753875732422,4.484408862026612e-07
15.7,1.2411230326198345e-06,0.0,-0.0023685432970523834,1.0,-45.171932220458984,-39.50774002075195,-0.004700202960520983,-0.00015709434228483588,-89.54753875732422,4.484408862026612e-07
15.75,0.0,0.0,-0.0023108883760869503,1.0,-45.171932220458984,-39.50774002075195,-0.004700202960520983,-0.00015709434228483588,-89.54753875732422,4.484408862026612e-07
15.8,8.504161035587231e-07,0.0,-0.0023108883760869503,1.0,-45.171932220458984,-39.50774002075195,-0.004700202960520983,-0.00015709434228483588,-89.54753875732422,4.484408862026612e-07
15.85,8.160411659069736e-07,0.0,-0.0023108883760869503,1.0,-45.171932220458984,-39.50774002075195,-0.004700202960520983,-0.00015709434228483588,-89.54753875732422,4.484408862026612e-07
15.9,7.430813457896188e-07,0.0,-0.0023108883760869503,1.0,-45.171932220458984,-39.50774002075195,-0.004700202960520983,-0.00015709434228483588,-89.54753875732422,4.484408862026612e-07
15.95,1.0834155973636653e-06,0.0,-0.0023273478727787733,1.0,-45.171932220458984,-39.50774002075195,-0.004700202960520983,-0.00015709434228483588,-89.54753875732422,4.484408862026612e-07
16.0,1.4397379824280924e-06,0.0,-0.0023273478727787733,1.0,-45.171932220458984,-39.50774002075195,-0.004700202960520983,-0.00015709434228483588,-89.54753875732422,4.484408862026612e-07
16.05,1.2360573366513822e-06,0.0,-0.0023273478727787733,1.0,-45.171932220458984,-39.50774002075195,-0.004700202960520983,-0.00015709434228483588,-89.54753875732422,4.484408862026612e-07
16.1,1.5920279006139775e-06,0.0,-0.0023273478727787733,1.0,-45.171932220458984,-39.50774002075195,-0.004700202960520983,-0.00015709434228483588,-89.54753875732422,4.484408862026612e-07
16.15,1.5203454128517825e-06,0.0,-0.0023273478727787733,1.0,-45.171932220458984,-39.50774002075195,-0.004700202960520983,-0.00015709434228483588,-89.54753875732422,4.484408862026612e-07
16.2,1.032925137545425e-07,0.0,-0.0023273478727787733,1.0,-45.171932220458984,-39.50774002075195,-0.004700202960520983,-0.00015709434228483588,-89.54753875732422,4.484408862026612e-07
